{
  "version": "2024",
  "source": "大分県防災ポータル・各市町村公開データ",
  "sites": [
    { "id": "oita-001", "name": "大分市役所", "lat": 33.2382, "lng": 131.6126, "address": "大分市荷揚町2-31", "city": "大分市" },
    { "id": "oita-002", "name": "大分市鶴崎市民行政センター", "lat": 33.2117, "lng": 131.6699, "address": "大分市鶴崎1-1-1", "city": "大分市" },
    { "id": "oita-003", "name": "大分市稙田市民行政センター", "lat": 33.2278, "lng": 131.5677, "address": "大分市大字玉沢490-1", "city": "大分市" },
    { "id": "oita-004", "name": "大分県立大分舞鶴高校", "lat": 33.2488, "lng": 131.6062, "address": "大分市舞鶴町1-1", "city": "大分市" },
    { "id": "oita-005", "name": "大分市立大分西中学校", "lat": 33.2321, "lng": 131.5803, "address": "大分市大字下郡1327", "city": "大分市" },
    { "id": "oita-006", "name": "大分市立明治小学校", "lat": 33.2434, "lng": 131.6235, "address": "大分市明治明野町1-1", "city": "大分市" },
    { "id": "oita-007", "name": "大分市立明野小学校", "lat": 33.2516, "lng": 131.6334, "address": "大分市明野東2-13-1", "city": "大分市" },
    { "id": "oita-008", "name": "大分市総合体育館", "lat": 33.2135, "lng": 131.6288, "address": "大分市高城南町1-1", "city": "大分市" },
    { "id": "oita-009", "name": "大分スポーツ公園（昭和電工ドーム大分）", "lat": 33.1866, "lng": 131.6259, "address": "大分市横尾656", "city": "大分市" },
    { "id": "oita-010", "name": "大分市立王子小学校", "lat": 33.2560, "lng": 131.6105, "address": "大分市王子中町15-1", "city": "大分市" },
    { "id": "oita-011", "name": "大分市立荷揚町小学校", "lat": 33.2381, "lng": 131.6049, "address": "大分市荷揚町6-1", "city": "大分市" },
    { "id": "oita-012", "name": "大分市立滝尾小学校", "lat": 33.2297, "lng": 131.6246, "address": "大分市曙町2-15", "city": "大分市" },
    { "id": "oita-013", "name": "大分市立大分東小学校", "lat": 33.2294, "lng": 131.6527, "address": "大分市上判田1282", "city": "大分市" },
    { "id": "oita-014", "name": "大分市立大在小学校", "lat": 33.1949, "lng": 131.6703, "address": "大分市大在2-1-1", "city": "大分市" },
    { "id": "oita-015", "name": "大分市立坂ノ市小学校", "lat": 33.1979, "lng": 131.7005, "address": "大分市坂ノ市南2-1-1", "city": "大分市" },
    { "id": "beppu-001", "name": "別府市役所", "lat": 33.2844, "lng": 131.4960, "address": "別府市上野口町1-15", "city": "別府市" },
    { "id": "beppu-002", "name": "別府市立別府中学校", "lat": 33.2882, "lng": 131.4968, "address": "別府市上田の湯町7-1", "city": "別府市" },
    { "id": "beppu-003", "name": "別府市立浜脇中学校", "lat": 33.2772, "lng": 131.5084, "address": "別府市浜脇3-1-1", "city": "別府市" },
    { "id": "beppu-004", "name": "別府市立石垣小学校", "lat": 33.2690, "lng": 131.4917, "address": "別府市石垣東7-1-31", "city": "別府市" },
    { "id": "beppu-005", "name": "別府市総合体育館（別府ビーコンプラザ）", "lat": 33.2834, "lng": 131.4832, "address": "別府市山の手町12-1", "city": "別府市" },
    { "id": "beppu-006", "name": "別府市立朝日小学校", "lat": 33.2927, "lng": 131.5005, "address": "別府市朝日町7-1", "city": "別府市" },
    { "id": "beppu-007", "name": "別府市立南小学校", "lat": 33.2756, "lng": 131.4989, "address": "別府市南立石公園5-1", "city": "別府市" },
    { "id": "beppu-008", "name": "大分県立別府鶴見丘高校", "lat": 33.2854, "lng": 131.4891, "address": "別府市鶴見5-1-1", "city": "別府市" },
    { "id": "beppu-009", "name": "別府市立野口小学校", "lat": 33.2801, "lng": 131.4906, "address": "別府市野口元町1-1", "city": "別府市" },
    { "id": "beppu-010", "name": "別府市立境川小学校", "lat": 33.3040, "lng": 131.5049, "address": "別府市境川3-1-1", "city": "別府市" },
    { "id": "nakatsu-001", "name": "中津市役所", "lat": 33.5988, "lng": 131.1891, "address": "中津市豊田町1", "city": "中津市" },
    { "id": "nakatsu-002", "name": "中津市立中津小学校", "lat": 33.5975, "lng": 131.1923, "address": "中津市二ノ丁5-1", "city": "中津市" },
    { "id": "nakatsu-003", "name": "中津市体育館", "lat": 33.5956, "lng": 131.1997, "address": "中津市大字今津3-1", "city": "中津市" },
    { "id": "nakatsu-004", "name": "中津市立中津中学校", "lat": 33.5914, "lng": 131.1847, "address": "中津市古城町1-1", "city": "中津市" },
    { "id": "nakatsu-005", "name": "中津市立三光中学校", "lat": 33.5681, "lng": 131.1595, "address": "中津市三光西秣大字", "city": "中津市" },
    { "id": "hita-001", "name": "日田市役所", "lat": 33.3214, "lng": 130.9413, "address": "日田市田島2-6-1", "city": "日田市" },
    { "id": "hita-002", "name": "日田市立三花中学校", "lat": 33.3276, "lng": 130.9467, "address": "日田市三本松1-4-1", "city": "日田市" },
    { "id": "hita-003", "name": "日田市民体育館", "lat": 33.3231, "lng": 130.9381, "address": "日田市城町1-1", "city": "日田市" },
    { "id": "hita-004", "name": "日田市立日田小学校", "lat": 33.3192, "lng": 130.9405, "address": "日田市元町7-1", "city": "日田市" },
    { "id": "hita-005", "name": "日田市立有田小学校", "lat": 33.3356, "lng": 130.9588, "address": "日田市東有田2826", "city": "日田市" },
    { "id": "saiki-001", "name": "佐伯市役所", "lat": 32.9601, "lng": 131.8999, "address": "佐伯市城内町1-1", "city": "佐伯市" },
    { "id": "saiki-002", "name": "佐伯市立城南小学校", "lat": 32.9575, "lng": 131.9024, "address": "佐伯市向島1-1-1", "city": "佐伯市" },
    { "id": "saiki-003", "name": "佐伯市鶴望地区センター", "lat": 32.9661, "lng": 131.8953, "address": "佐伯市内town1-1", "city": "佐伯市" },
    { "id": "usuki-001", "name": "臼杵市役所", "lat": 33.1267, "lng": 131.8062, "address": "臼杵市大字臼杵72-1", "city": "臼杵市" },
    { "id": "usuki-002", "name": "臼杵市立市浜小学校", "lat": 33.1197, "lng": 131.8088, "address": "臼杵市大字市浜1-1", "city": "臼杵市" },
    { "id": "tsukumi-001", "name": "津久見市役所", "lat": 33.0701, "lng": 131.8601, "address": "津久見市宮本町20-15", "city": "津久見市" },
    { "id": "taketa-001", "name": "竹田市役所", "lat": 32.9731, "lng": 131.3944, "address": "竹田市大字竹田2083", "city": "竹田市" },
    { "id": "bungoono-001", "name": "豊後大野市役所", "lat": 32.9790, "lng": 131.5859, "address": "豊後大野市三重町市場808-1", "city": "豊後大野市" },
    { "id": "bungoono-002", "name": "豊後大野市立三重中学校", "lat": 32.9746, "lng": 131.5844, "address": "豊後大野市三重町市場1300", "city": "豊後大野市" },
    { "id": "yufu-001", "name": "由布市役所（湯布院町庁舎）", "lat": 33.2596, "lng": 131.3741, "address": "由布市湯布院町川上2548-1", "city": "由布市" },
    { "id": "yufu-002", "name": "由布市立庄内中学校", "lat": 33.2019, "lng": 131.5163, "address": "由布市庄内町前田280-1", "city": "由布市" },
    { "id": "kusu-001", "name": "玖珠町役場", "lat": 33.3449, "lng": 131.1474, "address": "玖珠郡玖珠町大字帆足268-1", "city": "玖珠町" },
    { "id": "kusu-002", "name": "玖珠町立玖珠中学校", "lat": 33.3489, "lng": 131.1456, "address": "玖珠郡玖珠町大字塚脇1-1", "city": "玖珠町" },
    { "id": "kokonoe-001", "name": "九重町役場", "lat": 33.2268, "lng": 131.2013, "address": "玖珠郡九重町大字後野上1500-1", "city": "九重町" },
    { "id": "kunitomi-001", "name": "国東市役所", "lat": 33.5680, "lng": 131.7310, "address": "国東市国東町原898", "city": "国東市" },
    { "id": "kunitomi-002", "name": "国東市立国東中学校", "lat": 33.5665, "lng": 131.7287, "address": "国東市国東町原898", "city": "国東市" },
    { "id": "hiji-001", "name": "日出町役場", "lat": 33.3720, "lng": 131.5290, "address": "速見郡日出町2974-1", "city": "日出町" },
    { "id": "hiji-002", "name": "日出町立日出小学校", "lat": 33.3699, "lng": 131.5266, "address": "速見郡日出町2930-1", "city": "日出町" },
    { "id": "ajimu-001", "name": "宇佐市安心院支所", "lat": 33.4267, "lng": 131.3540, "address": "宇佐市安心院町下毛1273", "city": "宇佐市" },
    { "id": "usa-001", "name": "宇佐市役所", "lat": 33.5316, "lng": 131.3491, "address": "宇佐市大字上田1030-1", "city": "宇佐市" },
    { "id": "usa-002", "name": "宇佐市立四日市小学校", "lat": 33.5311, "lng": 131.3475, "address": "宇佐市大字四日市1-1", "city": "宇佐市" },
    { "id": "usa-003", "name": "宇佐市民体育館", "lat": 33.5285, "lng": 131.3512, "address": "宇佐市大字上田1-1", "city": "宇佐市" },
    { "id": "himeshima-001", "name": "姫島村役場", "lat": 33.7192, "lng": 131.6560, "address": "東国東郡姫島村4247", "city": "姫島村" }
  ]
}
